City_ID,City,Country,Max Temp,Current Description,Lat,Lng,Hotel Name
0,Georgetown,MY,84.2,light rain,5.4112,100.3354,Cititel Penang
1,Mauriti,BR,94.19,broken clouds,-7.3892,-38.7744,Hotel Pedra da Letra
2,Humaita,BR,92.91,broken clouds,-7.5061,-63.0208,Corrêa Hotel
3,Bethel,US,55.4,clear sky,41.3712,-73.414,Courtyard by Marriott Danbury
5,Parabel,RU,35.06,overcast clouds,58.6978,81.4825,Housing Complex Gazprom Transgaz Tomsk
6,Rikitea,PF,77.94,scattered clouds,-23.1203,-134.9692,Pension Maro'i
7,Punta Arenas,CL,46.4,scattered clouds,-53.15,-70.9167,Hotel Dreams Del Estrecho
8,Mataura,NZ,48.99,clear sky,-46.1927,168.8643,Ellie's Villa
9,Sao Filipe,CV,77.76,few clouds,14.8961,-24.4956,Tortuga B&B
12,Sur,OM,82.74,clear sky,22.5667,59.5289,Sur Plaza Hotel
14,Karaton,ID,82.99,few clouds,-6.3424,106.1045,Parkir Mobil Wisata CAS Water Park
15,Nanortalik,GL,38.25,overcast clouds,60.1432,-45.2371,Hotel Kap Farvel
17,Hobart,AU,52.0,clear sky,-42.8794,147.3294,Mantra on Collins Hobart
19,Geraldton,AU,64.4,broken clouds,-28.7667,114.6,Broadwater Mariner Resort
20,New Norfolk,AU,52.0,clear sky,-42.7826,147.0587,The Shingles Riverside Cottages
23,Bengkulu,ID,75.99,overcast clouds,-3.8004,102.2655,Grage Hotel Bengkulu
24,Bluff,NZ,48.99,overcast clouds,-46.6,168.3333,Bluff Homestead - Guesthouse & Campervan Park
25,Jamestown,US,57.99,clear sky,42.097,-79.2353,Hampton Inn & Suites Jamestown
26,Busselton,AU,60.01,clear sky,-33.65,115.3333,Observatory Guest House
27,Carnarvon,AU,77.0,overcast clouds,-24.8667,113.6333,Hospitality Carnarvon
28,Port Alfred,ZA,64.83,overcast clouds,-33.5906,26.891,The Halyards Hotel
29,Oranjestad,AW,84.2,few clouds,12.524,-70.027,Divi Village Golf & Beach Resort
32,Folldal,NO,24.08,snow,62.1325,9.9968,Løkken Fjellgård
33,Lashio,MM,64.29,overcast clouds,22.9333,97.75,Hotel CF Lashio - Burmese Only
34,Vardo,NO,33.8,sleet,70.3705,31.1107,Vardø Hotel AS
35,Hobyo,SO,82.89,few clouds,5.3505,48.5268,Halane Hotel and Restaurent
36,Butaritari,KI,81.18,moderate rain,3.0707,172.7902,Isles Sunset Lodge
37,Nikolskoye,RU,46.99,scattered clouds,59.7035,30.7861,Tourist House - Sablino
38,Mahebourg,MU,80.6,scattered clouds,-20.4081,57.7,Shandrani Beachcomber Resort & Spa
39,East London,ZA,64.4,light rain,-33.0153,27.9116,Tu Casa
40,Akyab,MM,80.49,clear sky,20.15,92.9,Hotel Memory
41,Sovetskiy,RU,31.86,light snow,61.3614,63.5842,Apartment on Kievskaya 29
42,Pisco,PE,73.99,clear sky,-13.7,-76.2167,Hotel San Isidro Oficial
44,Roald,NO,39.2,broken clouds,62.5833,6.1333,Flem Cabins
45,Ryotsu,JP,44.47,clear sky,38.0833,138.4333,Sadokamoko Onsen Kohanno Yado Yoshidaya
46,Pangody,RU,32.38,light snow,65.85,74.4859,Elizaveta Shevchuk's House
48,Asau,RO,48.99,light rain,46.4333,26.4,Casa Mika Ciobanus
49,Tasiilaq,GL,21.2,broken clouds,65.6145,-37.6368,The Red House
50,Rio Grande,BR,79.0,broken clouds,-32.035,-52.0986,Hotel Atlântico Rio Grande
51,Ponta Do Sol,PT,62.01,overcast clouds,32.6667,-17.1,Hotel do Campo
52,Nantucket,US,44.01,overcast clouds,41.2835,-70.0995,Jared Coffin House
53,Guerrero Negro,MX,65.14,clear sky,27.9769,-114.0611,"Casa Laguna, Bed & Breakfast"
54,Ushuaia,AR,42.8,broken clouds,-54.8,-68.3,Albatros Hotel
55,Wasilla,US,28.4,scattered clouds,61.5814,-149.4394,Alaska's Select Inn Wasilla
56,Klaksvik,FO,28.4,light snow,62.2266,-6.589,Airbnb rooms
57,Bhimunipatnam,IN,84.2,mist,17.8833,83.4333,Bheemili Court
58,Urusha,RU,12.78,clear sky,54.05,122.9,Dom Otdykha Lokomotivnykh Brigad
59,Rybnaya Sloboda,RU,33.8,clear sky,55.4613,50.1409,Гостиница Аяз
60,Mount Gambier,AU,57.2,clear sky,-37.8333,140.7667,Commodore on the Park
61,San Patricio,US,77.0,broken clouds,28.017,-97.5169,"Motel 6 Sinton, TX"
62,Tazovskiy,RU,32.36,light snow,67.4667,78.7,TazHostel
64,Okha,RU,14.38,few clouds,53.5739,142.9478,Империя
65,Ixtapa,MX,69.8,clear sky,20.7,-105.2,Hotel Plaza Providencia
66,Hermanus,ZA,62.01,overcast clouds,-34.4187,19.2345,Misty Waves Boutique Hotel
69,Chuy,UY,77.59,few clouds,-33.6971,-53.4616,Nuevo Hotel Plaza
70,Mar Del Plata,AR,71.6,broken clouds,-38.0023,-57.5575,Gran Hotel Mar del Plata
71,Kapaa,US,73.4,light rain,22.0752,-159.319,Sheraton Kauai Resort at Coconut Beach
72,Lazaro Cardenas,MX,82.17,clear sky,17.9583,-102.2,Hotel Quinta Antigua
73,Batsfjord,NO,33.8,light snow,70.6345,29.7185,Adventure Apartements
74,Waipawa,NZ,61.0,overcast clouds,-41.4122,175.5153,Tora Coastal Walk
75,Rodeo,US,52.0,overcast clouds,38.033,-122.2669,Captain's Cottage
76,Ahipara,NZ,62.08,overcast clouds,-35.1667,173.1667,Ahipara Holiday Park
77,Ca Mau,VN,81.66,broken clouds,9.1769,105.15,Khách Sạn Mường Thanh Luxury Cà Mau
78,Cabo San Lucas,MX,78.8,clear sky,22.8909,-109.9124,Hotel Tesoro Los Cabos
79,Vaini,TO,62.6,few clouds,-21.2,-175.2,Keleti Beach Resort
80,Sal Rei,CV,77.0,few clouds,16.1833,-22.9167,Marine Club Beach Resort
81,Puerto Ayora,EC,80.6,scattered clouds,-0.7393,-90.3518,Finch Bay Galapagos Hotel
82,Savannah Bight,HN,81.0,overcast clouds,16.45,-85.85,Villa on Dunbar Rock
83,Tooele,US,64.4,clear sky,40.5308,-112.2983,Holiday Inn Express & Suites Tooele
84,Angoche,MZ,78.46,scattered clouds,-16.2325,39.9086,Guest House HESADA
85,Kruisfontein,ZA,64.0,overcast clouds,-34.0033,24.7314,Oyster Bay House Rental
86,Fortuna,US,48.0,overcast clouds,40.5982,-124.1573,Super 8 by Wyndham Fortuna
88,Carutapera,BR,86.2,broken clouds,-1.195,-46.02,Lidera
89,Severo-Yeniseyskiy,RU,24.51,overcast clouds,60.3725,93.0408,Aktolik
90,Meulaboh,ID,79.05,overcast clouds,4.1363,96.1285,Kost Pria
91,Burnie,AU,53.01,clear sky,-41.0667,145.9167,Beachfront Voyager Motor Inn
92,Petropavlovskoye,RU,37.06,broken clouds,52.0712,84.107,Zarya Hotel
93,Caravelas,BR,83.7,overcast clouds,-17.7125,-39.2481,Pousada dos Navegantes
94,Port Hawkesbury,CA,44.01,overcast clouds,45.6169,-61.3485,MacKenzie House Tourist Home B&B
95,Bathsheba,BB,84.2,scattered clouds,13.2167,-59.5167,Atlantis Hotel
96,Isangel,VU,75.38,few clouds,-19.55,169.2667,Volcano Sea View Tree House
97,Norman Wells,CA,26.6,snow,65.282,-126.8329,Heritage Hotel
99,Lebu,CL,60.82,overcast clouds,-37.6167,-73.65,Hostal Las Lilas
100,Acapulco,MX,82.4,clear sky,16.8634,-99.8901,HS Hotsson Smart Acapulco
101,Marawi,PH,79.0,overcast clouds,7.9986,124.2928,Derogongan Residence
102,Skelleftea,SE,39.2,clear sky,64.7507,20.9528,Quality Hotel Skellefteå Stadshotell
103,Itaituba,BR,87.8,scattered clouds,-4.2761,-55.9836,Hotel Campos
105,Tarko-Sale,RU,33.15,overcast clouds,64.9225,77.785,Yubileynaya
106,Severo-Kurilsk,RU,26.73,overcast clouds,50.6789,156.125,Kak Doma
109,Sinnamary,GF,79.0,overcast clouds,5.3833,-52.95,ALETHEIA Appartement Sinnamary
110,Lasa,IT,60.8,clear sky,46.6166,10.7002,Pension Feldgärtenhof
111,Atlacomulco,MX,62.6,few clouds,19.7989,-99.8744,Cantalagua Inn
112,Warrnambool,AU,55.35,few clouds,-38.3833,142.4833,Lady Bay Resort
113,Sainte-Marie,RE,77.0,heavy intensity rain,-20.8968,55.5496,Les pailles en queue de Sainte Marie
114,Nexo,DK,35.6,broken clouds,55.0607,15.1306,Strandhotel Balka Søbad
115,Cidreira,BR,75.61,clear sky,-30.1811,-50.2056,Hotel Castelo
116,Comodoro Rivadavia,AR,55.4,overcast clouds,-45.8667,-67.5,Austral Hotel
117,Balikpapan,ID,74.64,light rain,-1.2675,116.8289,ibis Balikpapan
118,Cape Town,ZA,66.2,few clouds,-33.9258,18.4232,Southern Sun Waterfront Cape Town
119,Salalah,OM,84.2,clear sky,17.0151,54.0924,HAMDAN PLAZA HOTEL SALALAH
120,Rojhan,PK,86.7,overcast clouds,28.6868,69.9534,Nawab Imam Bux Khan Bangla
121,Nizhniy Baskunchak,RU,42.19,overcast clouds,48.2198,46.8311,Arman hotel
122,Camana,PE,73.8,broken clouds,-16.6228,-72.7111,Hostal Morales
123,Avarua,CK,77.0,moderate rain,-21.2078,-159.775,Paradise Inn
124,La Rioja,ES,69.8,clear sky,42.25,-2.5,Casa Concejos
125,Saravena,CO,82.36,overcast clouds,6.9538,-71.8752,Hotel Diamante Saravena
126,Bredasdorp,ZA,60.8,light rain,-34.5322,20.0403,Bredasdorp Country Manor
127,Fougeres,FR,51.01,broken clouds,48.35,-1.2,Best Western Hotel des Voyageurs
128,Thompson,CA,32.0,snow,55.7435,-97.8558,Burntwood Hotel
129,Pangai,TO,77.86,broken clouds,-19.8,-174.35,Ha'apai Beach Resort
130,Tautira,PF,77.0,few clouds,-17.7333,-149.15,Pension Oaoa
132,Kalmunai,LK,80.35,clear sky,7.4167,81.8167,VS Villa
133,Chimoio,MZ,77.0,scattered clouds,-19.1164,33.4833,Predio Livraria Ahmed
134,Gizo,SB,82.9,broken clouds,-8.103,156.8419,Imagination Island
135,Kodiak,US,30.2,clear sky,57.79,-152.4072,Best Western Kodiak Inn And Convention Center
136,Kavaratti,IN,83.1,scattered clouds,10.5669,72.642,Hotels in Lakshadweep Islands
137,Ancud,CL,64.0,broken clouds,-41.8697,-73.8203,Hotel Arena Gruesa
138,Nepa Nagar,IN,92.46,clear sky,21.4667,76.4,Rest House Hilltop
140,Shaunavon,CA,33.8,broken clouds,49.6501,-108.4181,Bear's Den Lodge
142,Teacapan,MX,79.18,clear sky,22.55,-105.75,Hotel los Mangos
143,Balkhash,KZ,40.66,overcast clouds,46.844,74.9804,Family
145,Hasaki,JP,48.2,broken clouds,35.7333,140.8333,Hotel Sunrise Choshi
146,Katsuura,JP,51.01,broken clouds,35.1333,140.3,Katsuura Hotel Mikazuki
147,Berlevag,NO,35.6,broken clouds,70.8578,29.0864,Kvitbrakka
148,Hirara,JP,69.73,overcast clouds,24.8,125.2833,Hotel Atoll Emerald Miyakojima
149,Faanui,PF,80.85,light rain,-16.4833,-151.75,Bora-Bora Pearl Beach Resort & Spa
150,Road Town,VG,82.4,few clouds,18.4167,-64.6167,"ZINGARA 76ft Catamaran, full crew-all included"
151,Puqi,CN,52.81,light rain,29.7167,113.8833,Ramada Plaza Chibi
152,Barcelos,PT,75.0,clear sky,41.5388,-8.6151,Hotel Do Terço
153,Napasar,IN,89.02,broken clouds,27.9667,73.55,Laxmi Palace
154,Saint George,US,59.0,clear sky,37.1041,-113.5841,Best Western Plus Abbey Inn
155,Kahului,US,69.8,light rain,20.8947,-156.47,Maui Seaside Hotel
156,Golden,US,68.0,broken clouds,39.7555,-105.2211,"The Golden Hotel, Ascend Hotel Collection"
157,Kokkola,FI,34.0,light snow,63.8385,23.1307,Hotel Kokkola
158,Roebourne,AU,82.85,light rain,-20.7833,117.1333,Harding River Caravan Park
159,Namibe,AO,86.0,broken clouds,-15.1961,12.1522,Hotel Chik Chik Namibe
161,Pauini,BR,84.97,overcast clouds,-7.7136,-66.9764,Casa do Kiwliks
162,Hithadhoo,MV,84.2,moderate rain,-0.6,73.0833,Scoop Guest House
163,Traralgon,AU,53.01,few clouds,-38.1833,146.5333,Comfort Inn Traralgon
164,Longyearbyen,SJ,17.6,light snow,78.2186,15.6401,"Radisson Blu Polar Hotel, Spitsbergen"
165,Petropavlovsk-Kamchatskiy,RU,24.8,scattered clouds,53.0452,158.6483,"ООО ""Гостиничный комплекс ""Петропавловск"""
166,Nagram,IN,86.0,haze,26.6167,81.1333,Yadav Beej Bhandar
167,Zhob,PK,70.41,overcast clouds,31.3411,69.4481,ROOM # 105 DUBAI HOTEL ZHOB
168,Itarema,BR,86.74,broken clouds,-2.9248,-39.9167,"Sea Lounge! Bar, Club & Restaurant"
169,Sterling,US,64.0,clear sky,39.0062,-77.4286,Hampton Inn & Suites Washington-Dulles International Airport
170,Torbay,CA,39.99,light intensity drizzle,47.6666,-52.7314,Gallows Cove
171,Kargasok,RU,34.88,overcast clouds,59.0556,80.8572,Hotel Kargasok
172,Constitucion,CL,61.7,overcast clouds,-35.3333,-72.4167,Hotel Boutique Las Azucenas
173,Erzin,TR,64.0,broken clouds,36.9559,36.2,Artemis Otel
174,Victoria,HK,73.0,broken clouds,22.2855,114.1577,Mini Hotel Central
177,Yellowknife,CA,19.99,broken clouds,62.456,-114.3525,The Explorer Hotel
178,Yichun,CN,32.79,clear sky,47.7,128.9,锦江酒店
179,Selma,US,53.01,few clouds,36.5708,-119.6121,Holiday Inn Selma-Swancourt
180,Korla,CN,55.08,broken clouds,41.7597,86.1469,Gulisitan Hotel
181,Arraial Do Cabo,BR,82.4,scattered clouds,-22.9661,-42.0278,Pousada Porto Praia
182,Jijiang,CN,59.0,light rain,29.2906,106.2542,Chongqing Jiangjin Hotel
185,Castro,BR,71.74,overcast clouds,-24.7911,-50.0119,CHACARA BAILLY
187,Olutanga,PH,82.67,overcast clouds,7.3106,122.8464,Morales Lodge
188,Iskateley,RU,29.39,overcast clouds,67.6803,53.1512,Hostel Agat
189,Lompoc,US,51.8,broken clouds,34.6391,-120.4579,Holiday Inn Express Lompoc
191,Coahuayana,MX,84.54,clear sky,18.7333,-103.6833,El rranchito michuacan de ocampos
192,Lorengau,PG,81.14,overcast clouds,-2.0226,147.2712,Lorengau Harbourside Hotel
193,Luena,AO,82.4,scattered clouds,-11.7833,19.9167,Hotel Kandamba
194,Hilo,US,69.8,moderate rain,19.7297,-155.09,Hilo Hawaiian Hotel
195,Abashiri,JP,28.0,clear sky,44.0213,144.2697,Tōyoko Inn Hokkaidō Okhotsk Abashiri Ekimae
197,Feijo,BR,78.55,overcast clouds,-8.1642,-70.3536,Hotel e Restaurante Aҫai
198,Mayumba,GA,82.17,light rain,-3.432,10.6554,LIKWALE LODGE
199,Saint Anthony,US,70.0,clear sky,45.0205,-93.218,Holiday Inn Express Roseville-St. Paul
200,Arlit,NE,97.47,clear sky,18.7369,7.3853,Case de Passage De la Prefecture
202,Banyo,CM,92.35,scattered clouds,6.75,11.8167,Motel JOMBA
203,Jinchang,CN,46.71,broken clouds,38.4953,102.1739,Mingshihui Jinchang International Hotel
204,Terney,RU,34.12,few clouds,45.0503,136.6092,"Hotel ""Ternay"""
205,Saint-Philippe,RE,80.6,clear sky,-21.3585,55.7679,"Chambres d'hôte ""La Trinité"""
206,Mount Isa,AU,73.4,few clouds,-20.7333,139.5,ibis Styles Mt Isa Verona
207,Mahina,PF,77.0,few clouds,-17.5065,-149.489,Guest Beach Bungalow Tahiti
208,Flinders,AU,68.0,overcast clouds,-34.5833,150.8552,Shellharbour Resort & Conference Centre
209,Ovalle,CL,70.14,broken clouds,-30.5983,-71.2003,Hotel Altos de Tuqui
210,Tome,CL,59.0,overcast clouds,-36.6167,-72.95,Dichato habitaciones
211,Pamanukan,ID,78.03,overcast clouds,-6.2842,107.8106,Paris Day Hotel Pamanukan
212,Mitsamiouli,KM,83.08,light rain,-11.3847,43.2844,Foyer ADM
213,Los Llanos De Aridane,ES,68.0,broken clouds,28.6585,-17.9182,Valle Aridane
215,Kavieng,PG,80.37,moderate rain,-2.5744,150.7967,Nusa Island Retreat
216,Bom Jesus,BR,96.71,few clouds,-9.0744,-44.3586,Hotel Brasão & Floricultura Bella Flor
218,Masumbwe,TZ,67.41,overcast clouds,-3.6333,32.1833,Ngabanya Logde & Filling Station
219,Mongu,ZM,78.13,scattered clouds,-15.2484,23.1274,Country Lodge Mongu
220,Padang,ID,77.0,moderate rain,-0.9492,100.3543,Mercure Padang
221,Goksun,TR,57.2,broken clouds,38.021,36.4973,Tuğçe Otel
223,Atuona,PF,80.04,scattered clouds,-9.8,-139.0333,Villa Enata
225,Nyrob,RU,20.17,broken clouds,60.733,56.7202,Gostinitsa
226,Necochea,AR,77.14,broken clouds,-38.5473,-58.7368,dyd -mar Hotel
227,Souillac,MU,80.6,scattered clouds,-20.5167,57.5167,Shanti Maurice Resort & Spa
228,Esperance,AU,77.0,broken clouds,-33.8667,121.9,Hospitality Esperance
229,Shediac,CA,39.0,light rain,46.2198,-64.5411,Auberge Gabrièle (Hôtel & Restaurant)
230,Ullapool,GB,36.0,overcast clouds,57.8987,-5.1604,Argyll Hotel
231,Karachi,PK,80.6,smoke,24.9056,67.0822,Sadaat
233,Singaraja,ID,80.56,light rain,-8.112,115.0882,Puri Bagus Lovina Resort
234,Salinopolis,BR,83.44,overcast clouds,-0.6136,-47.3561,Salinas Park Resort Maçarico AP101
235,Shache,CN,49.48,light rain,38.4167,77.2406,Delong Hotel
237,Mozarlandia,BR,88.84,broken clouds,-14.7447,-50.5706,Hotel Santa Mônica
238,Ribeira Grande,PT,64.4,few clouds,38.5167,-28.7,Quinta da Meia Eira
240,Zmeinogorsk,RU,38.14,overcast clouds,51.1567,82.195,"Kompastur, Gostinitsa"
241,Dunedin,NZ,52.0,broken clouds,-45.8742,170.5036,Scenic Hotel Southern Cross
243,Tuatapere,NZ,48.99,few clouds,-46.1333,167.6833,Ron and Tony's Bed & Breakfast
244,Bilma,NE,94.14,clear sky,18.6853,12.9164,Expeditions Ténére voyages
245,Kathu,TH,82.4,scattered clouds,7.9178,98.3332,Novotel Phuket Resort
246,Teahupoo,PF,77.0,few clouds,-17.8333,-149.2667,Vanira Lodge
247,Moron,AR,82.99,clear sky,-34.6534,-58.6198,Hotel Morón
248,Port Macquarie,AU,66.0,overcast clouds,-31.4333,152.9167,Rydges Port Macquarie
249,Barra Do Corda,BR,82.2,overcast clouds,-5.5,-45.25,Belchior Palace Hotel
250,Srandakan,ID,77.25,overcast clouds,-7.9386,110.2506,Puri Brata
251,Santa Isabel Do Rio Negro,BR,75.74,light rain,-0.4139,-65.0192,Hotel GSA
253,Bambous Virieux,MU,81.0,scattered clouds,-20.3428,57.7575,Casa Tia Villa
254,Iqaluit,CA,14.0,snow,63.7506,-68.5145,Frobisher Inn
255,Bhola,BD,80.55,clear sky,22.6833,90.65,Student Hostel (Shahbaz Khan Hostel)
257,Honningsvag,NO,35.6,broken clouds,70.9821,25.9704,Nordkapp Vandrerhjem
258,Faya,SA,73.4,scattered clouds,18.3851,42.4509,مقبرة ال مجمل
259,Chapais,CA,35.6,overcast clouds,49.7834,-74.8492,Hôtel Opémiska
260,Mishelevka,RU,31.62,overcast clouds,52.8575,103.1719,База отдыха Белая
261,Kaoma,ZM,72.0,few clouds,-14.7833,24.8,KAOMA AIRPORT
262,Corrente,BR,89.6,overcast clouds,-3.7367,-43.3394,Chapadinhense Hotel
263,Muros,ES,77.0,clear sky,42.7762,-9.0603,Apartment Av. Castelao
264,Broome,US,53.01,clear sky,42.2506,-75.833,Chenango Valley State Park
266,Koutsouras,GR,66.99,overcast clouds,35.0339,25.9469,The White Houses
267,Salta,AR,71.6,scattered clouds,-24.7859,-65.4117,Hotel Alejandro I
268,Goya,AR,70.92,very heavy rain,-29.14,-59.2626,Apart Costanera
269,Saldanha,ZA,71.6,clear sky,-33.0117,17.9442,Blue Bay Lodge
270,Leshukonskoye,RU,35.35,overcast clouds,64.8989,45.7622,Pryalitsa Hostel
271,Nabire,ID,76.89,overcast clouds,-3.3667,135.4833,Hotel Nusantara Nabire
272,Uusikaupunki,FI,33.8,broken clouds,60.8004,21.4084,Hotel Aquarius
273,Ilulissat,GL,17.6,light snow,69.2167,-51.1,Hotel Arctic
275,Acajutla,SV,75.99,clear sky,13.5928,-89.8275,asi es
276,Tumut,AU,68.0,clear sky,-35.3,148.2167,Amaroo Motel
277,Banyuwangi,ID,75.65,overcast clouds,-8.2325,114.3576,Hotel Blambangan
278,Harstad,NO,34.0,light snow,68.799,16.5293,Clarion Collection Hotel Arcticus
279,Kaitangata,NZ,46.99,clear sky,-46.2817,169.8464,Kaitangata Motor Camp
280,Perm,RU,35.6,clear sky,58.0174,56.2855,Otel' Tsvety
281,Colac,AU,57.0,clear sky,-38.3333,143.5833,Otway Gate Motel
282,Kirakira,SB,79.29,moderate rain,-10.4544,161.9205,SanBiz Lodge
284,Haines Junction,CA,26.6,light snow,60.7522,-137.5108,Parkside Inn
285,Saint-Denis,FR,45.0,clear sky,48.9167,2.3333,ibis budget Paris Porte de Montmartre
286,San Cristobal,VE,82.4,scattered clouds,7.7669,-72.225,Posada Villaven C.A.
288,Lauria,IT,51.1,clear sky,40.0465,15.8358,Hotel Isola Di Lauria
289,Cabo Rojo,PR,82.0,overcast clouds,18.0866,-67.1457,Hotel Perichi's
290,North Bay,CA,48.0,broken clouds,46.3168,-79.4663,Holiday Inn Express & Suites North Bay
291,Abu Dhabi,AE,78.8,clear sky,24.4667,54.3667,Ramee Garden Hotel Apartments
293,Lieksa,FI,35.4,overcast clouds,63.3167,30.0167,Kaatrahovi
294,Samur,RU,55.76,clear sky,41.8253,48.486,Samur
296,Sabang,ID,82.67,overcast clouds,5.8933,95.3214,Hotel Citra
298,Cordoba,AR,72.0,few clouds,-31.4135,-64.1811,Hotel Sussex
299,Buchanan,LR,89.6,light rain,5.8808,-10.0467,Kamaneahn Hotel Inc
300,Airai,TL,59.72,overcast clouds,-8.9266,125.4092,Juvinal Martin
301,Mocuba,MZ,72.48,scattered clouds,-16.8392,36.9856,Phama Lodge
302,Kiama,AU,69.01,broken clouds,-34.6833,150.8667,The Sebel Kiama Harbourside
303,Whitecourt,CA,30.2,few clouds,54.1502,-115.6855,Super 8 by Wyndham Whitecourt
304,Biloela,AU,69.76,overcast clouds,-24.4167,150.5,Silo Motor Inn
305,Krasnoselkup,RU,33.13,overcast clouds,65.7,82.4667,Krasnosel'kupnefteprodukt
306,Florence,IT,62.6,clear sky,43.7667,11.25,Italiana Hotels Florence
308,Gedo,ET,65.21,overcast clouds,9.0167,37.45,Mida Qanyi
309,Mizdah,LY,73.17,few clouds,31.4451,12.9801,محمدالمبروك الاريقط
310,Yar-Sale,RU,31.91,overcast clouds,66.8333,70.8333,Yalemd
311,Aden,YE,81.81,broken clouds,12.7794,45.0367,Sama Emirate Hotel
312,Abha,SA,73.4,scattered clouds,18.2164,42.5053,Abha Hotel
313,Thunder Bay,CA,48.99,broken clouds,48.4001,-89.3168,Victoria Inn Hotel and Convention Centre
315,Taltal,CL,71.64,clear sky,-25.4,-70.4833,Residencial Karime
316,Diego De Almagro,CL,80.44,clear sky,-26.3667,-70.05,hotel luna del desierto
318,Terdal,IN,88.14,clear sky,16.5,75.05,Naikwadi mansion
319,Coro,VE,84.83,overcast clouds,11.4045,-69.6734,Federal
320,Komsomolskiy,UZ,55.4,few clouds,40.4272,71.7189,Ikathouse
322,Qinzhou,CN,76.14,broken clouds,21.95,108.6167,Jinjiang Inn Style Qingzhou Walmart
323,Karratha,AU,83.41,light rain,-20.7377,116.8463,ibis Styles Karratha
324,Pochutla,MX,88.0,few clouds,15.7432,-96.4661,Hotel Posada San Jose
325,Verkhnedneprovskiy,RU,40.93,broken clouds,54.9813,33.3457,Friendship Hotel
326,Olafsvik,IS,26.74,overcast clouds,64.8945,-23.7142,Hotel Olafsvik
327,Codrington,AU,52.16,scattered clouds,-38.2667,141.9667,Codrington Gardens Bed And Breakfast
328,Pitimbu,BR,86.0,broken clouds,-7.4706,-34.8086,Reserva do Abiaí
329,Houma,US,72.0,clear sky,29.5958,-90.7195,Courtyard by Marriott Houma
330,Pokhara,NP,68.02,clear sky,28.2333,83.9833,Butterfly Lodge
331,Brookhaven,US,72.0,clear sky,31.5791,-90.4407,Americas Best Value Inn Brookhaven
332,Port-Gentil,GA,87.8,moderate rain,-0.7193,8.7815,Fengshui Residence
333,Tabou,CI,83.97,overcast clouds,4.423,-7.3528,hotêl doufoulougou
334,Bom Conselho,BR,83.44,broken clouds,-9.1697,-36.6797,Hotel Raízes
335,Broken Hill,AU,66.2,clear sky,-31.95,141.4333,Royal Exchange Hotel
336,Phalia,PK,78.55,overcast clouds,32.4297,73.5775,Sabri Hotel Phalia
337,Goma,CD,69.8,light rain,-1.6792,29.2228,Hotel la Versailles Goma
338,Pailon,BO,80.6,moderate rain,-17.65,-62.75,Alojamiento pailon
340,Artyom,AZ,55.4,clear sky,40.4723,50.333,Merdan Respect
341,Grand Baie,MU,81.0,light rain,-20.0182,57.5802,Trou aux Biches Beachcomber Golf Resort & Spa
342,Porto Novo,BJ,89.6,few clouds,6.4965,2.6036,Tour Eiffel Hotel Benin
343,La Plata,AR,77.0,few clouds,-34.9215,-57.9545,Hotel Corregidor
344,Thenzawl,IN,62.94,few clouds,23.3167,92.75,LH.Ngaihzuala Garden
345,Kizhinga,RU,26.44,scattered clouds,51.8462,109.9097,Viktoriya
347,Nieves,PH,82.4,broken clouds,15.3274,120.9485,Bill's Inn
348,Matay,EG,80.73,few clouds,28.419,30.7792,Nag Aespen
349,Puerto Madryn,AR,65.52,broken clouds,-42.7692,-65.0385,Hotel Tolosa
350,Vestmannaeyjar,IS,26.6,scattered clouds,63.4427,-20.2734,Glamping & Camping
351,Cajamar,BR,79.0,clear sky,-23.3519,-46.8813,Hospedaria Palotina
352,Viedma,AR,87.01,clear sky,-40.8135,-62.9967,Hotel Cristal
354,Prainha,BR,88.56,scattered clouds,-1.8,-53.48,Casa Rocha
355,Port Augusta,AU,68.0,clear sky,-32.5,137.7667,Majestic Oasis Apartments
356,Lesnoy,RU,32.81,light snow,57.6198,63.0784,Apartamenty Na Sovetskoy
357,Gull Lake,CA,35.6,clear sky,50.1001,-108.4847,Campbell's Accommodations
358,Touros,BR,86.0,broken clouds,-5.1989,-35.4608,INN NEW HORIZON
359,Gravelbourg,CA,39.2,broken clouds,49.8834,-106.5512,Historic Bishops Residence Bed & Breakfast
360,Fort Nelson,CA,30.2,broken clouds,58.8053,-122.7002,The Fort Nelson Hotel
361,Yinchuan,CN,48.99,light rain,38.4681,106.2731,JJ Inns - Yinchuan New Moon Square Branch
362,Ocean City,US,62.01,clear sky,39.2776,-74.5746,Biscayne Suites
363,Acari,PE,82.35,broken clouds,-15.4311,-74.6158,HOSPEDAJE XIMENA
364,Nishihara,JP,66.2,broken clouds,26.1842,127.7558,Minshuku Agaihama
365,Mao,ES,62.6,clear sky,39.8885,4.2658,ARTIEM Capri
367,Tambun,ID,82.99,few clouds,-6.2641,107.0712,@HOM Premiere Tambun
368,Del Rio,US,71.6,broken clouds,29.3627,-100.8968,Holiday Inn Express & Suites del Rio
369,Channel-Port Aux Basques,CA,39.63,overcast clouds,47.5702,-59.1367,St. Christopher's Hotel
370,Lagoa,PT,59.72,scattered clouds,39.05,-27.9833,Casa Das Faias
371,Lake City,US,72.0,clear sky,30.1897,-82.6393,Ramada Limited Lake City
372,Auki,SB,77.25,broken clouds,-8.7676,160.7034,Auki Motel
373,Worland,US,55.99,clear sky,44.0169,-107.9554,Town House Motor Inn
374,Zhuhai,CN,75.99,scattered clouds,22.2769,113.5678,Nanyang Seascape Hotel Zhuhai Hotel
375,Nouadhibou,MR,77.0,scattered clouds,20.931,-17.0347,El Medina
376,Sovetskaya Gavan,RU,32.11,overcast clouds,48.9723,140.2878,"Хостел ""Пилигрим"""
377,Monduli,TZ,75.2,scattered clouds,-3.3,36.45,Monduli Lutheran Youth Hostel
380,Peniche,PT,69.01,broken clouds,39.3558,-9.3811,Hotel Star inn Peniche
381,Barsovo,RU,42.8,clear sky,61.1667,73.1667,Dipanjan Goswami
383,Marsh Harbour,BS,68.11,clear sky,26.5412,-77.0636,Abaco Beach Resort
384,Ulaanbaatar,MN,24.8,clear sky,47.9077,106.8832,The Blue Sky Hotel and Tower
385,Roma,US,53.01,clear sky,43.2128,-75.4557,Wingate By Wyndham Rome
386,Alofi,NU,77.0,overcast clouds,-19.0595,-169.9187,Taloa Heights
387,Juneau,US,37.4,light rain,58.3019,-134.4197,"Baranof Downtown, Bw Signature Collection"
388,Skjervoy,NO,35.2,light snow,70.0311,20.9714,Skjervøy Byggeservice AS
389,Gwadar,PK,80.74,broken clouds,25.1216,62.3254,Sadaf Resort
391,Soyo,AO,86.0,light rain,-6.1349,12.3689,Hotel Mpampa
392,Hastings,GB,46.99,overcast clouds,50.8552,0.5729,Zanzibar Hotel
393,Polyarnyy,RU,33.8,light rain,69.1989,33.4478,Hotel Tatyana
394,Halifax,CA,45.0,overcast clouds,44.6453,-63.5724,Hotel Halifax
395,Turukhansk,RU,34.12,overcast clouds,65.8167,87.9833,"ООО ""Туруханская пушнина"""
396,Northam,GB,45.0,broken clouds,51.0333,-4.2167,Durrant House Hotel
397,Loiza,PR,84.2,scattered clouds,18.4313,-65.8802,Malibu Beachfront
398,Tuntum,BR,83.05,overcast clouds,-5.2581,-44.6489,Casa do Murilo
399,Hauterive,FR,66.2,clear sky,46.0901,3.4459,Aletti Palace Hotel
400,Douglas,US,69.01,clear sky,41.3,-96.167,Hilton Garden Inn Omaha West
401,Bubaque,GW,76.37,broken clouds,11.2833,-15.8333,"Casa Dora, Bubaque"
402,Te Anau,NZ,45.05,clear sky,-45.4167,167.7167,Kingsgate Hotel Te Anau
403,Muntenii De Jos,RO,55.4,clear sky,46.6167,27.7667,Hotel Vaslui
404,Langarud,IR,68.0,broken clouds,37.197,50.1535,ستاد اسکان فرهنگیان لنگرود
406,Darhan,MN,40.71,broken clouds,49.4867,105.9228,Buudai Hotel
407,Tigil,RU,21.43,light snow,57.8,158.6667,Tigil'
408,Husavik,IS,23.0,few clouds,66.0449,-17.3389,Bjarnabúð
409,Gazanjyk,TM,66.65,clear sky,39.2446,55.5154,Railway motel
410,Raudeberg,NO,37.0,overcast clouds,61.9875,5.1352,Nordre Silda.
411,Okato,NZ,61.0,overcast clouds,-39.2,173.8833,Goodin Country Garden
412,Puerto Escondido,MX,84.2,clear sky,15.85,-97.0667,Aldea del Bazar Hotel and Spa
413,Santa Fe,AR,73.99,overcast clouds,-31.6333,-60.7,Conquistador Hotel
414,Garbou,RO,53.6,clear sky,47.15,23.4333,Călacea county
415,Merrill,US,64.0,clear sky,45.1805,-89.6835,Prairie Motel
416,Alta Floresta,BR,85.66,broken clouds,-9.8756,-56.0861,Floresta Amazonica Hotel
417,Mulege,MX,85.68,clear sky,26.8833,-111.9833,Casa Granada
418,Zhezkazgan,KZ,41.58,overcast clouds,47.8043,67.7144,Ul. Ranova 15-1 Kvartiry Posutochno.
420,Xining,CN,41.5,few clouds,36.6167,101.7667,Super Leisure Hotel
421,Bonavista,CA,39.2,overcast clouds,48.6499,-53.1147,Abbott's Bed & Breakfast
423,Vuktyl,RU,23.52,few clouds,63.8567,57.3094,Mini-Hotel Lokomotiv
424,Kroya,ID,78.19,overcast clouds,-7.6331,109.2461,RUSTANTO Fam
425,Sao Miguel Do Araguaia,BR,86.97,moderate rain,-13.275,-50.1628,Hotel Executivo Palace
426,Porosozero,RU,35.06,light snow,62.7191,32.727,Porosozero
427,Burns Lake,CA,26.6,overcast clouds,54.2331,-125.7533,Burns Lake Bed and Breakfast
428,Puerto Madero,MX,86.0,broken clouds,14.7208,-92.4215,Hotel La Central
429,Katherine,AU,69.8,clear sky,-14.4667,132.2667,Pine Tree Motel
430,Sillamae,EE,32.47,light snow,59.3997,27.7547,Hotel Krunk
432,Ewa Beach,US,71.6,clear sky,21.3156,-158.0072,Uncle Junior Robert
433,Mancio Lima,BR,77.0,overcast clouds,-7.6142,-72.8958,Hotel e Distribuidora Voyage
434,Ponta Delgada,PT,62.6,few clouds,37.7333,-25.6667,Vila Nova Hotel
435,Leh,IN,34.52,scattered clouds,34.1667,77.5833,Hotel Ladakh Greens
436,Huejuquilla El Alto,MX,68.27,clear sky,22.6,-103.8667,Hotel Huexuquillan
437,San Luis,AR,80.46,few clouds,-33.295,-66.3356,Huarpes Hotel
438,Oga,IT,53.01,clear sky,46.4631,10.347,QC Terme Bagni di Bormio Bagni Nuovi
439,Hervey Bay,AU,73.0,overcast clouds,-25.2986,152.8535,Shelly Bay Resort
440,Honiara,SB,78.49,scattered clouds,-9.4333,159.95,Heritage Park Hotel
441,General Roca,AR,71.6,light rain,-39.0333,-67.5833,Hotel y Casino del Río General Roca
442,Hit,IQ,75.49,clear sky,33.6416,42.8251,صالون زيرو
443,Ondo,NG,92.23,broken clouds,7.1,4.8333,Leisure Spring Hotel
444,North Bend,US,41.0,clear sky,43.4065,-124.2243,Red Lion Hotel Coos Bay
445,Puerto Carreno,CO,86.04,overcast clouds,6.189,-67.4859,Casa Hotel Victoria
446,Maxixe,MZ,80.6,few clouds,-23.8597,35.3472,Oceano
447,Chernyshevsk,RU,22.91,scattered clouds,52.5243,117.0174,Inn Na Tsentralnoy
448,Tiarei,PF,77.0,few clouds,-17.5333,-149.3333,Le Rocher de Tahiti
449,Cockburn Town,TC,75.2,broken clouds,21.4612,-71.1419,Osprey Beach Hotel
450,Beira,MZ,78.8,scattered clouds,-19.8436,34.8389,Beira Terrace Hotel
451,Sao Jose Da Coroa Grande,BR,83.73,broken clouds,-8.8978,-35.1478,Crôa Mares Hotel
452,Chauk,MM,75.99,overcast clouds,20.8833,94.8167,Bo Khin Guest House
453,Hammerfest,NO,33.8,light snow,70.6634,23.6821,Skytterhuset
454,Codajas,BR,87.19,overcast clouds,-3.8367,-62.0569,Hotel Tamires
456,Peace River,CA,34.0,broken clouds,56.2501,-117.286,BCMInns - Peace River
457,Port Elizabeth,ZA,66.2,overcast clouds,-33.918,25.5701,39 On Nile Guest House
458,Oxapampa,PE,67.21,broken clouds,-10.5775,-75.4017,Hotel Heidinger
459,Ugoofaaru,MV,83.39,few clouds,5.6667,73.0,Ungoofaaru Inn
460,Port Washington,US,60.01,clear sky,40.8257,-73.6982,The Andrew Hotel
461,Sitka,US,37.4,moderate rain,57.0531,-135.33,Westmark Sitka
462,Paita,PE,84.2,clear sky,-5.0892,-81.1144,Hotel Náutico de Paita
463,Samarai,PG,82.09,overcast clouds,-10.6167,150.6667,Nuli Sapi
464,Tual,ID,83.66,overcast clouds,-5.6667,132.75,Grand Vilia Hotel
465,Asosa,ET,81.61,broken clouds,10.0667,34.5333,Blendana Hotel Assosa
466,Tarakan,ID,77.9,overcast clouds,3.3,117.6333,RedDoorz Syariah near Taman Berlabuh Tarakan
468,Eureka,US,48.99,overcast clouds,40.8021,-124.1637,Eureka Inn Trademark By Wyndham
469,Naze,JP,59.27,clear sky,28.3667,129.4833,奄美ポートタワーホテル
470,Gat,IL,77.0,clear sky,31.61,34.7642,OlusHome
471,Poum,NC,78.62,broken clouds,-20.2333,164.0167,Gîte kajeon
472,Pierre,US,53.6,clear sky,44.3683,-100.351,Ramkota Hotel
473,Gornopravdinsk,RU,36.32,overcast clouds,60.05,69.9,Burovik
474,Ayagoz,KZ,44.13,overcast clouds,47.9714,80.4392,Gostinitsa Nur
475,Coquimbo,CL,68.0,clear sky,-29.9533,-71.3436,Punto de encuentro
476,Malakal,SS,97.74,scattered clouds,9.5334,31.6605,Nile Palace Hotel
477,Talnakh,RU,22.28,snow,69.4865,88.3972,Talnakh Hotel
478,Marshfield,US,66.99,clear sky,44.6689,-90.1718,Holiday Inn Conference Ctr Marshfield
479,Toguchin,RU,29.8,broken clouds,55.2353,84.3858,Stolitsa
480,Bahar,IR,54.27,clear sky,34.9072,48.4414,نمایندگی سایپا اسدی 20406
481,Morant Bay,JM,82.4,scattered clouds,17.8815,-76.4093,Whispering Bamboo Cove Resort
482,Badou,TG,88.63,broken clouds,7.5833,0.6,Auberge la Victoire
483,Linqiong,CN,63.0,scattered clouds,30.4159,103.4609,Tianlun Tanxianglou Hotel
484,Lubbock,US,61.0,overcast clouds,33.6001,-101.8338,La Quinta Inn by Wyndham Lubbock - Downtown Civic Center
485,Ganzhou,CN,52.68,overcast clouds,28.8184,115.4327,Laotou Farm Restaurant Hostel
488,Rupert,US,48.2,clear sky,42.6191,-113.6772,Uptown Motel
489,Mafeteng,LS,67.03,clear sky,-29.823,27.2374,Mafeteng police station
490,Troitsko-Pechorsk,RU,24.48,few clouds,62.7084,56.1964,Pechora Gostinitsa
491,Southbridge,US,55.99,clear sky,42.0751,-72.0334,Southbridge Hotel & Conference Center
492,Aykino,RU,33.46,overcast clouds,62.2248,49.9922,Gostinitsa
494,Banda Aceh,ID,80.33,overcast clouds,5.5577,95.3222,Sulthan Hotel International
495,Kulhudhuffushi,MV,83.19,clear sky,6.6221,73.07,Haajy Guest House 1
496,Ketchikan,US,37.4,overcast clouds,55.3422,-131.6461,Snows Cove Lodge
497,Hami,CN,57.34,clear sky,42.8,93.45,Laoyutang Resort
498,Morondava,MG,77.99,clear sky,-20.2833,44.2833,La Case Bambou
499,Macapa,BR,89.6,scattered clouds,0.0389,-51.0664,Atalanta Hotel
500,Along,IN,65.28,clear sky,28.1667,94.7667,Hotel West
501,Hampton,US,64.0,clear sky,37.0299,-76.3452,Embassy Suites by Hilton Hampton Convention Center
502,Port Lincoln,AU,62.47,moderate rain,-34.7333,135.8667,Port Lincoln Hotel
503,Lanzhou,CN,57.99,clear sky,36.0564,103.7922,Lanzhou Amdo Xiangbala Hotel
504,Vila Velha,BR,77.0,broken clouds,-20.3297,-40.2925,Quality Suites Vila Velha
505,Tateyama,JP,51.01,scattered clouds,34.9833,139.8667,Tateyama Seaside Hotel
506,Staroaleyskoye,RU,36.7,overcast clouds,51.0061,82.0,"Gostinitsa ""Uyut"""
507,Santa Rosa,PH,82.4,few clouds,14.3122,121.1114,Erlyn’s Sta Rosa City Home
508,Laguna,US,51.01,broken clouds,38.421,-121.4238,Holiday Inn Express & Suites Elk Grove Central - Hwy 99
509,Corner Brook,CA,53.6,overcast clouds,48.9667,-57.9484,Glynmill Inn
512,Antofagasta,CL,73.99,clear sky,-23.65,-70.4,Holiday Inn Express Antofagasta
513,Lamu,KE,84.2,few clouds,-2.2717,40.902,Lamu House
515,Muli,MV,84.04,scattered clouds,2.9167,73.5667,Medhufushi Island Resort
516,Requena,ES,71.01,few clouds,39.4883,-1.1004,Hotel Avenida
517,Quatre Cocos,MU,81.0,scattered clouds,-20.2078,57.7625,Emeraude Beach Attitude Hotel
518,Hearst,CA,46.4,overcast clouds,49.6835,-83.6665,Companion
519,Nagorsk,RU,30.22,broken clouds,59.3172,50.8078,Uyutnyy Dom
520,Corn Island,NI,80.11,overcast clouds,12.1694,-83.0418,Big Fish Guest House
521,Molteno,ZA,67.41,clear sky,-31.3968,26.3625,Nadirashaleeta B&B
522,Brae,GB,33.8,light snow,60.3964,-1.353,Busta House Hotel
523,Seguela,CI,94.78,overcast clouds,7.9611,-6.6731,Hotel le Carrefour
524,Sambava,MG,79.9,scattered clouds,-14.2667,50.1667,Melrose
525,Santa Rosalia,MX,81.32,clear sky,27.3167,-112.2833,Hotel Las Casitas Santa Rosalia
526,Shimoda,JP,52.0,overcast clouds,34.6667,138.95,Shimoda Tokyu Hotel
527,Maceio,BR,86.0,broken clouds,-9.6658,-35.7353,Poutur Pousada
528,Verkhnyaya Sinyachikha,RU,32.58,overcast clouds,57.976,61.6673,Hostel Sovetskaya
529,Margate,GB,46.0,overcast clouds,51.3813,1.3862,Premier Inn Margate hotel
530,Maniitsoq,GL,27.09,snow,65.4167,-52.9,Hotel Heilmann Lyberth
531,Cabedelo,BR,86.0,broken clouds,-6.9811,-34.8339,Hotel Pigalle
532,Kamen-Rybolov,RU,40.95,few clouds,44.7481,132.0403,"The recreation center ""Olimp"""
533,Navalmoral De La Mata,ES,72.3,clear sky,39.8916,-5.5406,Hotel Moya S A
534,San Felipe,VE,82.24,overcast clouds,10.3399,-68.7425,Posada Llovizna Rodríguez
535,Plettenberg Bay,ZA,61.9,light rain,-34.0527,23.3716,Thanda Vista B&B
536,Shenjiamen,CN,54.05,overcast clouds,29.9576,122.298,Jinjiang Inn Zhoushan Putuo Shenjiamen
537,Sao Joao Da Barra,BR,82.4,broken clouds,-21.6403,-41.0511,Pousada Porto De Canoas
538,Champerico,GT,80.6,clear sky,14.3,-91.9167,"Hotel y restaurante ""El Diamante"""
539,Qaqortoq,GL,39.2,broken clouds,60.7167,-46.0333,Hotel Qaqortoq
540,Lata,PT,79.0,clear sky,40.1629,-8.3327,Casa Maquia
542,Barbate,ES,75.0,clear sky,36.1924,-5.9219,Hotel Adiafa
544,Severnoye,RU,35.33,overcast clouds,56.3491,78.3619,Gostinitsa Severyanka
545,Alvorada,BR,88.72,broken clouds,-12.48,-49.1247,Cristal Plaza Hotel
546,Tabuk,PH,73.36,broken clouds,17.4189,121.4443,Golden Berries Hotel and Convention
547,Pacific Grove,US,53.6,overcast clouds,36.6177,-121.9166,Lovers Point Inn
548,Atasu,KZ,35.71,overcast clouds,48.6814,71.6433,Dostyk
549,Ozark,US,68.0,overcast clouds,37.0209,-93.206,Americas Best Value Inn Ozark Springfield
550,Urumqi,CN,55.4,clear sky,43.801,87.6005,Hua Ling Grand Hotel Urumqi
551,Ayan,RU,13.51,overcast clouds,56.45,138.1667,Gostinitsa
552,Naples,IT,60.8,few clouds,40.8333,14.25,Renaissance Naples Hotel Mediterraneo
553,Nemuro,JP,31.77,clear sky,43.3236,145.575,Hotel Nemuro Kaiyoutei
554,Kigoma,TZ,80.6,few clouds,-4.8769,29.6267,Kigoma Hilltop Hotel
555,Pemberton,CA,26.6,clear sky,50.3164,-122.8027,Pemberton Valley Lodge
559,Bayir,TR,66.2,broken clouds,37.2687,28.2167,Hotel Babadag
560,Gushikawa,JP,66.2,overcast clouds,26.3544,127.8686,Kirari Guest House
561,Sault Sainte Marie,CA,48.2,few clouds,46.5168,-84.3333,Comfort Inn
562,Grand Gaube,MU,81.0,broken clouds,-20.0064,57.6608,Veranda Paul et Virginie Hotel & Spa
563,Kenora,CA,44.6,overcast clouds,49.8167,-94.4337,Maynard Lake Lodge
564,Apango,MX,80.01,clear sky,17.7333,-99.3333,Agua Inmaculada Apango
565,Gasa,PS,77.0,clear sky,31.5,34.4667,رابطة الفنانين الفلسطينيين
566,Hay River,CA,32.0,overcast clouds,60.8156,-115.7999,Ptarmigan Inn Hotels
567,Richards Bay,ZA,69.76,clear sky,-28.783,32.0377,BON Hotel Waterfront Richards Bay
568,Nampula,MZ,78.8,light rain,-15.1165,39.2666,BUTIK Hotel
570,Hunchun,CN,40.23,broken clouds,42.8675,130.3581,International Hotel
572,Ledyard,US,55.99,clear sky,41.4398,-72.0142,Stonecroft Country Inn
573,Balaghat,IN,86.76,clear sky,21.8,80.1833,Hotel celebration
574,Huarmey,PE,76.21,scattered clouds,-10.0681,-78.1522,Hotel Miramar
575,Wajid,SO,85.64,broken clouds,3.8093,43.2471,xamdihotelresturant114
576,Altay,CN,42.44,clear sky,47.8667,88.1167,Jinqiao Hotel
577,Brooks,CA,37.0,clear sky,50.5834,-111.8851,Heritage Inn Hotel & Convention Centre
578,Krasnoborsk,RU,37.89,overcast clouds,61.5598,45.934,"Baza Otdykha ""Medvezhiy Ugol"""
579,Verkhniy Mamon,RU,44.74,overcast clouds,50.1635,40.3832,Guest House Motel Moscow
580,Robat Karim,IR,69.8,clear sky,35.4846,51.0829,لوازم خانگي شايان
581,Yazd,IR,68.0,few clouds,31.8972,54.3675,Mozaffar Traditional Hotel
583,Visby,SE,37.99,clear sky,57.6409,18.296,Best Western Solhem Hotel Visby
584,Hofn,IS,23.94,overcast clouds,64.2539,-15.2082,Hótel Höfn
585,Cumra,TR,62.6,broken clouds,37.5732,32.7745,Catalhoyuk Hotel
586,Loanhead,GB,44.6,clear sky,55.8795,-3.1587,Melville Castle Hotel
587,Alyangula,AU,79.7,few clouds,-13.8483,136.4192,Groote Eylandt Lodge
588,Khani,GE,55.4,overcast clouds,41.9563,42.9566,კურორტი ზეკარი/Resort Zekari
590,Vallenar,CL,78.1,clear sky,-28.5708,-70.7581,Humacao Bed & Breakfast
591,Sakakah,SA,80.6,clear sky,29.9697,40.2064,Fakhamat Al Orjoana Apartment
592,Palauig,PH,79.59,clear sky,15.435,119.9045,Myhousebythesea
593,Hanting,CN,54.21,overcast clouds,36.7708,119.2108,Weifang Xinhongda Guesthouse
594,Villefranche-Sur-Saone,FR,64.0,overcast clouds,45.9833,4.7167,Hôtel Kyriad Villefranche Sur Saone
596,Mehamn,NO,35.6,broken clouds,71.0357,27.8492,Mehamn Arctic Hotel AS
597,Kununurra,AU,73.4,clear sky,-15.7667,128.7333,Hotel Kununurra
598,Kurilsk,RU,27.46,clear sky,45.2333,147.8833,City of Kurilsk
599,La Ronge,CA,35.6,overcast clouds,55.1001,-105.2842,Northland Motor Hotel
601,Medea,DZ,64.4,scattered clouds,36.2642,2.7539,Hôtel M'Sallah
602,Tokmak,UA,44.87,overcast clouds,47.2514,35.7058,Дом приезжих
604,Kasempa,ZM,69.12,broken clouds,-13.4584,25.8338,Lolelunga Forest Reserve
605,Stuttgart,DE,42.8,light rain,48.7823,9.177,Hotel Unger
606,Den Helder,NL,39.0,broken clouds,52.9599,4.7593,Hotel Den Helder
607,Vao,NC,74.61,broken clouds,-22.6667,167.4833,Hotel Kou-Bugny
608,Kamaishi,JP,37.18,clear sky,39.2667,141.8833,Hotel Route Inn Kamaishi
609,Rocha,UY,78.1,few clouds,-34.4833,-54.3333,Beleza Pura B&B
610,Erbaa,TR,48.2,broken clouds,40.6689,36.5675,Erbaa Öğretmenevi
611,Buala,SB,79.88,overcast clouds,-8.145,159.5921,Maringe Lagoon Lodge
612,Sioux Lookout,CA,44.6,broken clouds,50.1001,-91.917,Knobby's Fly-In Camps
613,Elbistan,TR,54.7,overcast clouds,38.2059,37.1983,Sword Hotel
614,Burgeo,CA,44.71,overcast clouds,47.6167,-57.6152,Gillett's Motel
615,Urucara,BR,89.85,overcast clouds,-2.5364,-57.76,Hotel japa
616,Vadso,NO,33.8,sleet,70.0744,29.7487,Scandic Vadsø
617,Harrogate,GB,46.0,clear sky,53.9908,-1.5373,Hotel du Vin Harrogate
618,Neiafu,TO,71.6,scattered clouds,-18.65,-173.9833,Mystic Sands
619,Santarem,BR,82.4,scattered clouds,-2.4431,-54.7083,Ecotur Lodge
620,San Quintin,MX,63.79,scattered clouds,30.4833,-115.95,Old Mill Hotel
621,Ilebo,CD,85.33,overcast clouds,-4.3167,20.5833,Hôtel BUMAK
622,Peque,CO,77.88,overcast clouds,7.0212,-75.9093,Hotel Rodizzio
623,Mackay,AU,73.4,broken clouds,-21.15,149.2,International Lodge Motel
624,Razole,IN,82.4,broken clouds,16.4833,81.8333,Sterling Palavelli Godavari
626,Rivera,UY,78.31,overcast clouds,-30.9053,-55.5508,Hotel Casino & Resort Rivera
627,Estevan,CA,39.2,broken clouds,49.1334,-102.9842,"Motel 6 Estevan, SK"
628,Koshekhabl,RU,51.76,light rain,44.8972,40.5119,Apartments Europa
629,Bozhou,CN,45.82,overcast clouds,33.8772,115.7703,Haitian Hotel
631,Pavlovsk,RU,46.22,light rain,50.4578,40.1081,Grand-Otel'
633,Villa Carlos Paz,AR,77.0,overcast clouds,-31.4241,-64.4978,Monte Carlo
634,Elizabeth City,US,64.0,clear sky,36.2946,-76.2511,Hampton Inn Elizabeth City
635,Nichinan,JP,54.34,scattered clouds,31.6,131.3667,Guest House Aki
636,Sao Felix Do Xingu,BR,91.99,few clouds,-6.6447,-51.995,Rio Xingu Camping
637,Sinjar,IQ,64.27,broken clouds,36.3209,41.8754,زوماني فون 1
638,Barcelona,ES,70.0,clear sky,41.3888,2.159,Axel Hotel Barcelona
640,Puerto Palomas,MX,60.8,clear sky,31.7667,-107.6167,Hotel San Carlos
641,Sao Raimundo Das Mangabeiras,BR,88.32,overcast clouds,-7.0219,-45.4811,Hotel Tropical
642,Meadow Lake,US,69.01,scattered clouds,34.8014,-106.5436,JKL Inc. R.V Park and Storage
643,Yulara,AU,69.8,clear sky,-25.2406,130.9889,Desert Gardens Hotel - Ayers Rock Resort
644,Bonoua,CI,87.8,light rain,5.2741,-3.595,Hotel Bon Samaritian
645,Nelson Bay,AU,64.99,overcast clouds,-32.7167,152.15,Mantra Nelson Bay
647,Kupang,ID,77.16,overcast clouds,-10.1667,123.5833,Hotel On The Rock by Prasanthi
649,Simplicio Mendes,BR,88.93,overcast clouds,-7.8539,-41.9103,Fidalgo
650,Luchegorsk,RU,43.77,broken clouds,46.4764,134.2569,Mirazh
651,Libertador General San Martin,AR,80.01,overcast clouds,-23.8064,-64.7876,Posada del Sol
652,Loandjili,CG,84.2,scattered clouds,-4.7561,11.8578,Résidence ARCHANGE
653,Matara,LK,78.44,scattered clouds,5.9485,80.5353,Amaloh Boutique Resort
654,Qasigiannguit,GL,17.6,light snow,68.8193,-51.1922,Hotel Discobay
655,Amuntai,ID,73.69,moderate rain,-2.4177,115.2494,Hotel Balqis
656,Gloucester,GB,44.6,few clouds,51.8657,-2.2431,Edward Hotel
657,El Salto,MX,81.01,few clouds,20.3333,-104.5,ramirez
658,Ramanathapuram,IN,84.04,clear sky,9.3833,78.8333,Golden Residency
660,Akdagmadeni,TR,52.5,light rain,39.6603,35.8836,Hanedan Otel
661,Chemainus,CA,42.01,few clouds,48.9163,-123.7194,Fuller Lake Motel
662,Flin Flon,CA,39.2,broken clouds,54.7682,-101.865,Victoria Inn Flin Flon
663,Krasnoturinsk,RU,29.55,overcast clouds,59.7666,60.2086,Teremok Inn
664,Acucena,BR,77.23,overcast clouds,-19.0731,-42.5464,Hotel e Restaurante Açucena
665,Dodge City,US,66.99,clear sky,37.7528,-100.0171,Windsor Inn & Suites
666,Peno,RU,42.13,scattered clouds,56.9262,32.7426,Country House Orlinka
667,Ginir,ET,63.57,light rain,7.1333,40.7,Sura Dare Village
668,Zalantun,CN,36.52,scattered clouds,48.0,122.7167,GreenTree Alliance Hulunbeier Zhalantun Railway Station Hotel
669,Aurillac,FR,62.01,clear sky,44.9167,2.45,Hôtel Restaurant Campanile Aurillac
670,Alugan,PH,78.58,overcast clouds,12.2188,125.4808,JM Lodge
671,Kroonstad,ZA,71.82,clear sky,-27.6504,27.2349,Travel Inn Kroonstad
672,Sarkikaraagac,TR,52.75,scattered clouds,38.0794,31.3664,Sarkikaraagac Ogretmenevi
673,Alice Springs,AU,70.0,clear sky,-23.7,133.8833,Desert Palms Alice Springs
674,Saint-Joseph,RE,80.6,clear sky,-21.3667,55.6167,"""Plantation Bed and Breakfast"
675,Corpus Christi,US,75.2,broken clouds,27.8006,-97.3964,Holiday Inn Corpus Christi Downtown Marina
677,Guangyuan,CN,57.99,overcast clouds,32.442,105.823,Guangyuan Poetry Hotel
678,Santo Nino,PH,76.75,overcast clouds,6.435,124.6975,The Signature Place
679,Bull Savanna,JM,78.82,broken clouds,17.8868,-77.5902,Big Red's
680,Dillon,US,75.0,clear sky,34.4166,-79.3712,Dillon Express Inn
681,Namatanai,PG,77.83,moderate rain,-3.6667,152.4333,Namatanai Hotel
682,Torrington,US,53.01,few clouds,41.8007,-73.1212,The Yankee Pedlar Inn
683,Kijang,KR,48.2,clear sky,35.2442,129.2139,Samyang Beach Villa
684,Port-Cartier,CA,41.0,mist,50.0334,-66.8654,Le Q'Artier
685,Guasdualito,VE,80.6,moderate rain,7.2424,-70.7324,Hotel Cuibas
686,Barbastro,ES,68.0,clear sky,42.0356,0.1269,Gran Hotel Ciudad De Barbastro
687,Paamiut,GL,34.59,overcast clouds,61.994,-49.6678,Yeet Hotel
